{
"type": "FeatureCollection",
"name": "LIB_s3",
"crs": { "type": "name", "properties": { "name": "urn:ogc:def:crs:OGC:1.3:CRS84" } },
"features": [
{ "type": "Feature", "properties": { "show": "Love is Blind", "season": 3, "release-year": 2022, "year-filmed": 2022, "film_set_type": "pods", "name": "Trilith Studios", "city": "Atlanta", "state": "GA", "country": "USA", "lat": 33.4731485, "long": -84.5147164, "contestants": 30 }, "geometry": { "type": "Point", "coordinates": [ -84.5147164, 33.4731485 ] } },
{ "type": "Feature", "properties": { "show": "Love is Blind", "season": 3, "release-year": 2022, "year-filmed": 2022, "film_set_type": "honeymoon-retreat", "name": "Calamigos Ranch", "city": "Malibu", "state": "CA", "country": "USA", "lat": 34.092137, "long": -118.817412, "contestants": 10 }, "geometry": { "type": "Point", "coordinates": [ -118.817412, 34.092137 ] } },
{ "type": "Feature", "properties": { "show": "Love is Blind", "season": 3, "release-year": 2022, "year-filmed": 2022, "film_set_type": "apartments", "name": "The Jewel on Landmark", "city": "Dallas", "state": "TX", "country": "USA", "lat": 32.9462948, "long": -96.8286632, "contestants": 10 }, "geometry": { "type": "Point", "coordinates": [ -96.8286632, 32.9462948 ] } },
{ "type": "Feature", "properties": { "show": "Love is Blind", "season": 3, "release-year": 2022, "year-filmed": 2022, "film_set_type": "wedding-location", "name": "Lone Star Mansion", "city": "Burleson", "state": "TX", "country": "USA", "lat": 32.5162831, "long": -97.2704277, "contestants": 4 }, "geometry": { "type": "Point", "coordinates": [ -97.2704277, 32.5162831 ] } }
]
}
